[
    {
        "name": "&Tea Yucha",
        "lat": 51.92197822118749,
        "long": 4.484443440887541
    },
    {
        "name": "Cutea Bubbletea",
        "lat": 51.920619869489926,
        "long": 4.473852160756833
    },
    {
        "name": "YoYo! Fresh Tea Bar",
        "lat": 51.92205743326533,
        "long": 4.472168780360126
    },
    {
        "name": "Infinitea",
        "lat": 51.92034535913912,
        "long": 4.487455043577216
    },
    {
        "name": "Tea Society",
        "lat": 51.919755767984064,
        "long": 4.475922997745865
    }
]